{
"type": "FeatureCollection",
"name": "1_Thema_Realität_2",
"features": [
{ "type": "Feature", "properties": { "title": "Angenehm nichts.", "Markierung": null }, "geometry": { "type": "Point", "coordinates": [ 13.362401, 52.483111 ] } },
{ "type": "Feature", "properties": { "title": "Asphalt", "Markierung": null }, "geometry": { "type": "Point", "coordinates": [ 13.394541, 52.52783 ] } },
{ "type": "Feature", "properties": { "title": "Autolärm (lauter auf Kopfsteinpflaster), Menschen, Vögel", "Markierung": null }, "geometry": { "type": "Point", "coordinates": [ 13.443468, 52.475602 ] } },
{ "type": "Feature", "properties": { "title": "Autos", "Markierung": null }, "geometry": { "type": "Point", "coordinates": [ 13.471212, 52.514629 ] } },
{ "type": "Feature", "properties": { "title": "Autos (manchmal), Menschen, die sich vorm Kiosk unterhalten oder telefonieren.", "Markierung": null }, "geometry": { "type": "Point", "coordinates": [ 13.418984, 52.536404 ] } },
{ "type": "Feature", "properties": { "title": "Autos, Menschen, Hunde", "Markierung": null }, "geometry": { "type": "Point", "coordinates": [ 13.337113, 52.496156 ] } },
{ "type": "Feature", "properties": { "title": "befreit, aber auch überfordert, weil die kleine Straße oft voll von Autoverkehr ist", "Markierung": null }, "geometry": { "type": "Point", "coordinates": [ 13.443468, 52.475602 ] } },
{ "type": "Feature", "properties": { "title": "bin hier zu Hause", "Markierung": 1 }, "geometry": { "type": "Point", "coordinates": [ 13.418984, 52.536404 ] } },
{ "type": "Feature", "properties": { "title": "Claustrophobic", "Markierung": null }, "geometry": { "type": "Point", "coordinates": [ 13.362401, 52.483111 ] } },
{ "type": "Feature", "properties": { "title": "das Grundrauschen des Mehringdamms", "Markierung": null }, "geometry": { "type": "Point", "coordinates": [ 13.385789, 52.485707 ] } },
{ "type": "Feature", "properties": { "title": "Eingeengt", "Markierung": null }, "geometry": { "type": "Point", "coordinates": [ 13.466696, 52.510612 ] } },
{ "type": "Feature", "properties": { "title": "Enge", "Markierung": null }, "geometry": { "type": "Point", "coordinates": [ 13.394541, 52.52783 ] } },
{ "type": "Feature", "properties": { "title": "Es ist ruhig, aber im Hintergrund kann man die Ubahn und die Straße hören.", "Markierung": null }, "geometry": { "type": "Point", "coordinates": [ 13.245724, 52.517592 ] } },
{ "type": "Feature", "properties": { "title": "Frisch", "Markierung": null }, "geometry": { "type": "Point", "coordinates": [ 13.466696, 52.510612 ] } },
{ "type": "Feature", "properties": { "title": "frische Luft und irgendwie nach frischer Wäsche,", "Markierung": null }, "geometry": { "type": "Point", "coordinates": [ 13.459518, 52.508333 ] } },
{ "type": "Feature", "properties": { "title": "frische Luft, aber auch viele Abgase", "Markierung": null }, "geometry": { "type": "Point", "coordinates": [ 13.443468, 52.475602 ] } },
{ "type": "Feature", "properties": { "title": "frische Wäsche, Kaffee, Diesel", "Markierung": 1 }, "geometry": { "type": "Point", "coordinates": [ 13.385789, 52.485707 ] } },
{ "type": "Feature", "properties": { "title": "Gesprächsfetzten und ein kleiner Wind", "Markierung": null }, "geometry": { "type": "Point", "coordinates": [ 13.459518, 52.508333 ] } },
{ "type": "Feature", "properties": { "title": "Glücklich, voller Tatendrang", "Markierung": null }, "geometry": { "type": "Point", "coordinates": [ 13.393458, 52.590692 ] } },
{ "type": "Feature", "properties": { "title": "Gutes Gefühl", "Markierung": null }, "geometry": { "type": "Point", "coordinates": [ 13.459518, 52.508333 ] } },
{ "type": "Feature", "properties": { "title": "Ich kann, besonders im Sommer, den Geruch von Wald und Natur riechen.", "Markierung": null }, "geometry": { "type": "Point", "coordinates": [ 13.245724, 52.517592 ] } },
{ "type": "Feature", "properties": { "title": "indifferent", "Markierung": null }, "geometry": { "type": "Point", "coordinates": [ 13.337113, 52.496156 ] } },
{ "type": "Feature", "properties": { "title": "Keiner", "Markierung": null }, "geometry": { "type": "Point", "coordinates": [ 13.457462, 52.516382 ] } },
{ "type": "Feature", "properties": { "title": "KFZ-Lärm", "Markierung": null }, "geometry": { "type": "Point", "coordinates": [ 13.427964, 52.504278 ] } },
{ "type": "Feature", "properties": { "title": "Kiosk / sprechende Fußgängerinnen", "Markierung": null }, "geometry": { "type": "Point", "coordinates": [ 13.42937, 52.539223 ] } },
{ "type": "Feature", "properties": { "title": "Lärm von Autos die über Kopfsteinpflaster fahren", "Markierung": null }, "geometry": { "type": "Point", "coordinates": [ 13.466696, 52.510612 ] } },
{ "type": "Feature", "properties": { "title": "Leise - aber Autos", "Markierung": null }, "geometry": { "type": "Point", "coordinates": [ 13.457462, 52.516382 ] } },
{ "type": "Feature", "properties": { "title": "mir gefällt es hier", "Markierung": null }, "geometry": { "type": "Point", "coordinates": [ 13.42937, 52.539223 ] } },
{ "type": "Feature", "properties": { "title": "mitgerissen, verwurzelt im Moment, zielstrebig", "Markierung": null }, "geometry": { "type": "Point", "coordinates": [ 13.385789, 52.485707 ] } },
{ "type": "Feature", "properties": { "title": "nass, kalt, feuchtes Laub, Burger", "Markierung": null }, "geometry": { "type": "Point", "coordinates": [ 13.337113, 52.496156 ] } },
{ "type": "Feature", "properties": { "title": "neutral", "Markierung": null }, "geometry": { "type": "Point", "coordinates": [ 13.350309, 52.534341 ] } },
{ "type": "Feature", "properties": { "title": "nichts", "Markierung": null }, "geometry": { "type": "Point", "coordinates": [ 13.471212, 52.514629 ] } },
{ "type": "Feature", "properties": { "title": "öffentlich", "Markierung": null }, "geometry": { "type": "Point", "coordinates": [ 13.427964, 52.504278 ] } },
{ "type": "Feature", "properties": { "title": "Stress, Ekel", "Markierung": null }, "geometry": { "type": "Point", "coordinates": [ 13.457462, 52.516382 ] } },
{ "type": "Feature", "properties": { "title": "Tauben", "Markierung": null }, "geometry": { "type": "Point", "coordinates": [ 13.350309, 52.534341 ] } },
{ "type": "Feature", "properties": { "title": "Urin", "Markierung": null }, "geometry": { "type": "Point", "coordinates": [ 13.350309, 52.534341 ] } },
{ "type": "Feature", "properties": { "title": "Verhältnismäßig ruhig, aber ein langsam fahrendes Auto ist immer zu hören", "Markierung": null }, "geometry": { "type": "Point", "coordinates": [ 13.362401, 52.483111 ] } },
{ "type": "Feature", "properties": { "title": "Verkehrsrauschen", "Markierung": null }, "geometry": { "type": "Point", "coordinates": [ 13.394541, 52.52783 ] } },
{ "type": "Feature", "properties": { "title": "Vogelgezwitscher, Insekten", "Markierung": null }, "geometry": { "type": "Point", "coordinates": [ 13.393458, 52.590692 ] } },
{ "type": "Feature", "properties": { "title": "Wahr wegen Gefahr", "Markierung": 1 }, "geometry": { "type": "Point", "coordinates": [ 13.471212, 52.514629 ] } },
{ "type": "Feature", "properties": { "title": "warm, es riecht nach Sommer", "Markierung": null }, "geometry": { "type": "Point", "coordinates": [ 13.393458, 52.590692 ] } },
{ "type": "Feature", "properties": { "title": "Wenn die Sonne scheint, bekomme ich sie jetzt direkt ins Gesicht. Ich bin glücklich, weil ich um mich herum Natur habe.", "Markierung": null }, "geometry": { "type": "Point", "coordinates": [ 13.245724, 52.517592 ] } }
]
}
