{
"type": "FeatureCollection",
"name": "1_Thema_Traum_2",
"features": [
{ "type": "Feature", "properties": { "title": "Dörflich", "Markierung": null }, "geometry": { "type": "Point", "coordinates": [ 13.394458, 52.527836 ] } },
{ "type": "Feature", "properties": { "title": "Entspannt", "Markierung": null }, "geometry": { "type": "Point", "coordinates": [ 13.362349, 52.483114 ] } },
{ "type": "Feature", "properties": { "title": "entspannt", "Markierung": null }, "geometry": { "type": "Point", "coordinates": [ 13.337209, 52.496189 ] } },
{ "type": "Feature", "properties": { "title": "Entspannung und Zufriedenheit, weil ich so einen schöne Garten vor meiner Haustür habe und es so ruhig ist.", "Markierung": null }, "geometry": { "type": "Point", "coordinates": [ 13.245735, 52.517592 ] } },
{ "type": "Feature", "properties": { "title": "Entspannung, glücklich", "Markierung": null }, "geometry": { "type": "Point", "coordinates": [ 13.471388, 52.514559 ] } },
{ "type": "Feature", "properties": { "title": "erholt, entspannt, glücklich", "Markierung": null }, "geometry": { "type": "Point", "coordinates": [ 13.393451, 52.590693 ] } },
{ "type": "Feature", "properties": { "title": "erleichtert, froh", "Markierung": null }, "geometry": { "type": "Point", "coordinates": [ 13.443423, 52.475643 ] } },
{ "type": "Feature", "properties": { "title": "frei", "Markierung": null }, "geometry": { "type": "Point", "coordinates": [ 13.427718, 52.504363 ] } },
{ "type": "Feature", "properties": { "title": "Freude", "Markierung": null }, "geometry": { "type": "Point", "coordinates": [ 13.457404, 52.516401 ] } },
{ "type": "Feature", "properties": { "title": "Freude , Leichtigkeit", "Markierung": null }, "geometry": { "type": "Point", "coordinates": [ 13.458117, 52.516179 ] } },
{ "type": "Feature", "properties": { "title": "frisch gewaschene Wäsche, Kaffee, Vegetation", "Markierung": null }, "geometry": { "type": "Point", "coordinates": [ 13.3858, 52.485714 ] } },
{ "type": "Feature", "properties": { "title": "frisch, blumig", "Markierung": null }, "geometry": { "type": "Point", "coordinates": [ 13.351135, 52.534401 ] } },
{ "type": "Feature", "properties": { "title": "Frisch, Kaffee, Gebäck", "Markierung": null }, "geometry": { "type": "Point", "coordinates": [ 13.362349, 52.483114 ] } },
{ "type": "Feature", "properties": { "title": "Frische Brötchen", "Markierung": null }, "geometry": { "type": "Point", "coordinates": [ 13.394458, 52.527836 ] } },
{ "type": "Feature", "properties": { "title": "frische Luft, Natur", "Markierung": null }, "geometry": { "type": "Point", "coordinates": [ 13.443423, 52.475643 ] } },
{ "type": "Feature", "properties": { "title": "geerdet und doch mitgerissen", "Markierung": 1 }, "geometry": { "type": "Point", "coordinates": [ 13.3858, 52.485714 ] } },
{ "type": "Feature", "properties": { "title": "Geruch von Blumen und Wald, frische Luft", "Markierung": null }, "geometry": { "type": "Point", "coordinates": [ 13.245735, 52.517592 ] } },
{ "type": "Feature", "properties": { "title": "Insekten, Vögel", "Markierung": null }, "geometry": { "type": "Point", "coordinates": [ 13.393451, 52.590693 ] } },
{ "type": "Feature", "properties": { "title": "Insekten, Vögel", "Markierung": null }, "geometry": { "type": "Point", "coordinates": [ 13.337209, 52.496189 ] } },
{ "type": "Feature", "properties": { "title": "Insekten, Vögel,", "Markierung": null }, "geometry": { "type": "Point", "coordinates": [ 13.337209, 52.496189 ] } },
{ "type": "Feature", "properties": { "title": "keine Geräusche von der Ubahn und der Straße, nur Vogelzwitschern und Wind der durch die Bäume rauscht.", "Markierung": null }, "geometry": { "type": "Point", "coordinates": [ 13.245735, 52.517592 ] } },
{ "type": "Feature", "properties": { "title": "keiner", "Markierung": null }, "geometry": { "type": "Point", "coordinates": [ 13.457404, 52.516401 ] } },
{ "type": "Feature", "properties": { "title": "Lachende Kinder, chatting people", "Markierung": 1 }, "geometry": { "type": "Point", "coordinates": [ 13.362349, 52.483114 ] } },
{ "type": "Feature", "properties": { "title": "Lebendiges Treiben, aber ohne Hektik", "Markierung": 1 }, "geometry": { "type": "Point", "coordinates": [ 13.394458, 52.527836 ] } },
{ "type": "Feature", "properties": { "title": "Leckeres Essen", "Markierung": null }, "geometry": { "type": "Point", "coordinates": [ 13.460062, 52.515993 ] } },
{ "type": "Feature", "properties": { "title": "Leute lachen", "Markierung": null }, "geometry": { "type": "Point", "coordinates": [ 13.457404, 52.516401 ] } },
{ "type": "Feature", "properties": { "title": "Leute lachen", "Markierung": null }, "geometry": { "type": "Point", "coordinates": [ 13.460062, 52.515993 ] } },
{ "type": "Feature", "properties": { "title": "Miteinander", "Markierung": null }, "geometry": { "type": "Point", "coordinates": [ 13.460062, 52.515993 ] } },
{ "type": "Feature", "properties": { "title": "nach Blumen", "Markierung": null }, "geometry": { "type": "Point", "coordinates": [ 13.471388, 52.514559 ] } },
{ "type": "Feature", "properties": { "title": "Nach frischem Kuchen", "Markierung": null }, "geometry": { "type": "Point", "coordinates": [ 13.459472, 52.50837 ] } },
{ "type": "Feature", "properties": { "title": "neutral", "Markierung": null }, "geometry": { "type": "Point", "coordinates": [ 13.427718, 52.504363 ] } },
{ "type": "Feature", "properties": { "title": "Ping Pong", "Markierung": null }, "geometry": { "type": "Point", "coordinates": [ 13.458117, 52.516179 ] } },
{ "type": "Feature", "properties": { "title": "Schöner Grüner", "Markierung": null }, "geometry": { "type": "Point", "coordinates": [ 13.418856, 52.536456 ] } },
{ "type": "Feature", "properties": { "title": "Schritte, Fahrräder, Stimmen, Autos, ein Skateboard - kurzum geschäftiges Treiben", "Markierung": null }, "geometry": { "type": "Point", "coordinates": [ 13.3858, 52.485714 ] } },
{ "type": "Feature", "properties": { "title": "sicher", "Markierung": null }, "geometry": { "type": "Point", "coordinates": [ 13.351135, 52.534401 ] } },
{ "type": "Feature", "properties": { "title": "Vögel", "Markierung": null }, "geometry": { "type": "Point", "coordinates": [ 13.418856, 52.536456 ] } },
{ "type": "Feature", "properties": { "title": "Vögel zwitschern", "Markierung": null }, "geometry": { "type": "Point", "coordinates": [ 13.427718, 52.504363 ] } },
{ "type": "Feature", "properties": { "title": "Vögel zwitschern", "Markierung": null }, "geometry": { "type": "Point", "coordinates": [ 13.459472, 52.50837 ] } },
{ "type": "Feature", "properties": { "title": "Vögel, spielende Kinder, sprechende Menschen", "Markierung": null }, "geometry": { "type": "Point", "coordinates": [ 13.443423, 52.475643 ] } },
{ "type": "Feature", "properties": { "title": "Vögel, Wind, Gespräche", "Markierung": null }, "geometry": { "type": "Point", "coordinates": [ 13.351135, 52.534401 ] } },
{ "type": "Feature", "properties": { "title": "Vögeln, Wind in den Bäumen", "Markierung": null }, "geometry": { "type": "Point", "coordinates": [ 13.471388, 52.514559 ] } },
{ "type": "Feature", "properties": { "title": "Voller Freude", "Markierung": null }, "geometry": { "type": "Point", "coordinates": [ 13.459472, 52.50837 ] } },
{ "type": "Feature", "properties": { "title": "warm, es riecht nach Sommer", "Markierung": null }, "geometry": { "type": "Point", "coordinates": [ 13.393451, 52.590693 ] } },
{ "type": "Feature", "properties": { "title": "warm, es riecht nach Sommer, Blumen.", "Markierung": null }, "geometry": { "type": "Point", "coordinates": [ 13.337209, 52.496189 ] } }
]
}
